$GPGGA,202540.12,4230.369875,N,14327.387196,E,1,08,1.0,61.30,M,35.9,M,,0000*6E
$GPZDA,202540.12,03,05,2019,00,00*68
$GPGGA,202540.24,4230.367606,N,14327.389652,E,1,08,1.0,65.89,M,35.9,M,,0000*68
$GPZDA,202540.24,03,05,2019,00,00*6D
$GPGGA,202540.69,4230.369079,N,14327.387196,E,1,08,1.0,59.95,M,35.9,M,,0000*62
$GPZDA,202540.69,03,05,2019,00,00*64
$GPGGA,202540.81,4230.368749,N,14327.386458,E,1,08,1.0,62.10,M,35.9,M,,0000*62
$GPZDA,202540.81,03,05,2019,00,00*62
$GPGGA,202541.29,4230.370100,N,14327.387500,E,1,08,1.0,57.89,M,35.9,M,,0000*68
$GPZDA,202541.29,03,05,2019,00,00*61
$GPGGA,202541.38,4230.368937,N,14327.385589,E,1,08,1.0,60.24,M,35.9,M,,0000*6D
$GPZDA,202541.38,03,05,2019,00,00*61
$GPGGA,202541.86,4230.369807,N,14327.387935,E,1,08,1.0,58.48,M,35.9,M,,0000*63
$GPZDA,202541.86,03,05,2019,00,00*64
$GPGGA,202541.98,4230.369741,N,14327.385306,E,1,08,1.0,58.61,M,35.9,M,,0000*62
$GPZDA,202541.98,03,05,2019,00,00*6B
$GPGGA,202542.43,4230.369039,N,14327.389390,E,1,08,1.0,58.55,M,35.9,M,,0000*6B
$GPZDA,202542.43,03,05,2019,00,00*6E
$GPGGA,202542.49,4230.369039,N,14327.389390,E,1,08,1.0,58.55,M,35.9,M,,0000*61
$GPZDA,202542.49,03,05,2019,00,00*64
$GPGGA,202542.55,4230.368728,N,14327.384719,E,1,08,1.0,57.70,M,35.9,M,,0000*6A
$GPZDA,202542.55,03,05,2019,00,00*69
$GPGGA,202543.12,4230.368749,N,14327.386458,E,1,08,1.0,62.10,M,35.9,M,,0000*6B
$GPZDA,202543.12,03,05,2019,00,00*6B
$GPGGA,202543.60,4230.368822,N,14327.388804,E,1,08,1.0,58.99,M,35.9,M,,0000*6F
$GPZDA,202543.60,03,05,2019,00,00*6E
$GPGGA,202543.69,4230.369658,N,14327.386610,E,1,08,1.0,61.74,M,35.9,M,,0000*68
$GPZDA,202543.69,03,05,2019,00,00*67
$GPGGA,202544.29,4230.369582,N,14327.387631,E,1,08,1.0,61.90,M,35.9,M,,0000*67
$GPZDA,202544.29,03,05,2019,00,00*64
$GPGGA,202544.74,4230.368424,N,14327.388804,E,1,08,1.0,58.32,M,35.9,M,,0000*66
$GPZDA,202544.74,03,05,2019,00,00*6C
$GPGGA,202544.86,4230.369589,N,14327.387348,E,1,08,1.0,58.92,M,35.9,M,,0000*6A
$GPZDA,202544.86,03,05,2019,00,00*61
$GPGGA,202545.31,4230.368612,N,14327.387935,E,1,08,1.0,56.46,M,35.9,M,,0000*60
$GPZDA,202545.31,03,05,2019,00,00*6C
$GPGGA,202545.43,4230.370038,N,14327.390543,E,1,08,1.0,65.41,M,35.9,M,,0000*6E
$GPZDA,202545.43,03,05,2019,00,00*69
$GPGGA,202545.88,4230.368641,N,14327.389390,E,1,08,1.0,57.88,M,35.9,M,,0000*6C
$GPZDA,202545.88,03,05,2019,00,00*6E
$GPGGA,202546.00,4230.370234,N,14327.389390,E,1,08,1.0,60.58,M,35.9,M,,0000*69
$GPZDA,202546.00,03,05,2019,00,00*6D
$GPGGA,202546.48,4230.369220,N,14327.388804,E,1,08,1.0,59.67,M,35.9,M,,0000*69
$GPZDA,202546.48,03,05,2019,00,00*61
$GPGGA,202546.51,4230.369220,N,14327.388804,E,1,08,1.0,59.67,M,35.9,M,,0000*61
$GPZDA,202546.51,03,05,2019,00,00*69
$GPGGA,202546.57,4230.369325,N,14327.389239,E,1,08,1.0,60.93,M,35.9,M,,0000*67
$GPZDA,202546.57,03,05,2019,00,00*6F
$GPGGA,202547.05,4230.368131,N,14327.389239,E,1,08,1.0,58.91,M,35.9,M,,0000*6E
$GPZDA,202547.05,03,05,2019,00,00*69
$GPGGA,202547.17,4230.369249,N,14327.390260,E,1,08,1.0,61.09,M,35.9,M,,0000*6F
$GPZDA,202547.17,03,05,2019,00,00*6A
$GPGGA,202547.62,4230.368312,N,14327.388652,E,1,08,1.0,60.02,M,35.9,M,,0000*65
$GPZDA,202547.62,03,05,2019,00,00*68
$GPGGA,202547.74,4230.368844,N,14327.390543,E,1,08,1.0,63.39,M,35.9,M,,0000*6B
$GPZDA,202547.74,03,05,2019,00,00*6F
$GPGGA,202547.80,4230.368844,N,14327.390543,E,1,08,1.0,63.39,M,35.9,M,,0000*60
$GPZDA,202547.80,03,05,2019,00,00*64
$GPGGA,202548.19,4230.367733,N,14327.389239,E,1,08,1.0,58.23,M,35.9,M,,0000*6E
$GPZDA,202548.19,03,05,2019,00,00*6B
$GPGGA,202548.31,4230.369438,N,14327.389390,E,1,08,1.0,59.23,M,35.9,M,,0000*61
$GPZDA,202548.31,03,05,2019,00,00*61
$GPGGA,202548.79,4230.367913,N,14327.388652,E,1,08,1.0,59.35,M,35.9,M,,0000*6A
$GPZDA,202548.79,03,05,2019,00,00*6D
$GPGGA,202548.91,4230.369278,N,14327.391716,E,1,08,1.0,62.51,M,35.9,M,,0000*67
$GPZDA,202548.91,03,05,2019,00,00*6B
$GPGGA,202549.36,4230.368236,N,14327.389673,E,1,08,1.0,60.18,M,35.9,M,,0000*64
$GPZDA,202549.36,03,05,2019,00,00*67
$GPGGA,202549.48,4230.369242,N,14327.390543,E,1,08,1.0,64.06,M,35.9,M,,0000*6C
$GPZDA,202549.48,03,05,2019,00,00*6E
$GPGGA,202549.93,4230.369213,N,14327.389087,E,1,08,1.0,62.64,M,35.9,M,,0000*69
$GPZDA,202549.93,03,05,2019,00,00*68
$GPGGA,202550.05,4230.368956,N,14327.390694,E,1,08,1.0,61.68,M,35.9,M,,0000*66
$GPZDA,202550.05,03,05,2019,00,00*6F
$GPGGA,202550.50,4230.369144,N,14327.389825,E,1,08,1.0,59.82,M,35.9,M,,0000*6F
$GPZDA,202550.50,03,05,2019,00,00*6F
$GPGGA,202550.62,4230.368558,N,14327.390694,E,1,08,1.0,61.00,M,35.9,M,,0000*6B
$GPZDA,202550.62,03,05,2019,00,00*6E
$GPGGA,202551.07,4230.369003,N,14327.388217,E,1,08,1.0,60.11,M,35.9,M,,0000*64
$GPZDA,202551.07,03,05,2019,00,00*6C
$GPGGA,202551.22,4230.369391,N,14327.391867,E,1,08,1.0,60.80,M,35.9,M,,0000*66
$GPZDA,202551.22,03,05,2019,00,00*6B
$GPGGA,202552.24,4230.366035,N,14327.388804,E,1,08,1.0,54.26,M,35.9,M,,0000*67
$GPZDA,202552.24,03,05,2019,00,00*6E
$GPGGA,202552.36,4230.369926,N,14327.390391,E,1,08,1.0,67.12,M,35.9,M,,0000*69
$GPZDA,202552.36,03,05,2019,00,00*6D
$GPGGA,202552.81,4230.366614,N,14327.388217,E,1,08,1.0,56.05,M,35.9,M,,0000*66
$GPZDA,202552.81,03,05,2019,00,00*61
$GPGGA,202552.96,4230.370227,N,14327.389673,E,1,08,1.0,63.55,M,35.9,M,,0000*67
$GPZDA,202552.96,03,05,2019,00,00*67
$GPGGA,202553.41,4230.366936,N,14327.389239,E,1,08,1.0,56.88,M,35.9,M,,0000*6C
$GPZDA,202553.41,03,05,2019,00,00*6C
$GPGGA,202553.53,4230.370310,N,14327.388369,E,1,08,1.0,60.43,M,35.9,M,,0000*61
$GPZDA,202553.53,03,05,2019,00,00*6F
$GPGGA,202554.55,4230.365238,N,14327.388804,E,1,08,1.0,52.91,M,35.9,M,,0000*61
$GPZDA,202554.55,03,05,2019,00,00*6E
$GPGGA,202554.67,4230.370107,N,14327.389804,E,1,08,1.0,68.24,M,35.9,M,,0000*6D
$GPZDA,202554.67,03,05,2019,00,00*6F
$GPGGA,202555.12,4230.367237,N,14327.388521,E,1,08,1.0,53.31,M,35.9,M,,0000*6F
$GPZDA,202555.12,03,05,2019,00,00*6C
$GPGGA,202555.18,4230.367237,N,14327.388521,E,1,08,1.0,53.31,M,35.9,M,,0000*65
$GPZDA,202555.18,03,05,2019,00,00*66
$GPGGA,202555.24,4230.370596,N,14327.388217,E,1,08,1.0,62.81,M,35.9,M,,0000*6B
$GPZDA,202555.24,03,05,2019,00,00*69
$GPGGA,202555.72,4230.369010,N,14327.387935,E,1,08,1.0,57.13,M,35.9,M,,0000*62
$GPZDA,202555.72,03,05,2019,00,00*6A
$GPGGA,202555.84,4230.370168,N,14327.386762,E,1,08,1.0,60.71,M,35.9,M,,0000*60
$GPZDA,202555.84,03,05,2019,00,00*63
$GPGGA,202555.90,4230.370168,N,14327.386762,E,1,08,1.0,60.71,M,35.9,M,,0000*65
$GPZDA,202555.90,03,05,2019,00,00*66
$GPGGA,202556.41,4230.370596,N,14327.388217,E,1,08,1.0,62.81,M,35.9,M,,0000*6B
$GPZDA,202556.41,03,05,2019,00,00*69
$GPGGA,202556.47,4230.370596,N,14327.388217,E,1,08,1.0,62.81,M,35.9,M,,0000*6D
$GPZDA,202556.47,03,05,2019,00,00*6F
$GPGGA,202556.86,4230.369108,N,14327.388652,E,1,08,1.0,61.37,M,35.9,M,,0000*60
$GPZDA,202556.86,03,05,2019,00,00*62
$GPGGA,202556.98,4230.371302,N,14327.387217,E,1,08,1.0,56.94,M,35.9,M,,0000*69
$GPZDA,202556.98,03,05,2019,00,00*6D
$GPGGA,202557.04,4230.371302,N,14327.387217,E,1,08,1.0,56.94,M,35.9,M,,0000*6D
$GPZDA,202557.04,03,05,2019,00,00*69
$GPGGA,202557.43,4230.370093,N,14327.387783,E,1,08,1.0,60.86,M,35.9,M,,0000*6A
$GPZDA,202557.43,03,05,2019,00,00*6A
$GPGGA,202557.55,4230.370393,N,14327.387065,E,1,08,1.0,57.30,M,35.9,M,,0000*68
$GPZDA,202557.55,03,05,2019,00,00*6D
$GPGGA,202558.03,4230.369296,N,14327.387783,E,1,08,1.0,59.51,M,35.9,M,,0000*6E
$GPZDA,202558.03,03,05,2019,00,00*61
$GPGGA,202558.15,4230.370610,N,14327.387652,E,1,08,1.0,56.86,M,35.9,M,,0000*63
$GPZDA,202558.15,03,05,2019,00,00*66
$GPGGA,202558.60,4230.369799,N,14327.388217,E,1,08,1.0,61.46,M,35.9,M,,0000*6B
$GPZDA,202558.60,03,05,2019,00,00*64
$GPGGA,202558.72,4230.370393,N,14327.387065,E,1,08,1.0,57.30,M,35.9,M,,0000*62
$GPZDA,202558.72,03,05,2019,00,00*67
$GPGGA,202559.17,4230.368815,N,14327.389087,E,1,08,1.0,61.97,M,35.9,M,,0000*66
$GPZDA,202559.17,03,05,2019,00,00*65
$GPGGA,202559.29,4230.370657,N,14327.385175,E,1,08,1.0,55.28,M,35.9,M,,0000*69
$GPZDA,202559.29,03,05,2019,00,00*68
$GPGGA,202559.74,4230.367515,N,14327.388652,E,1,08,1.0,58.67,M,35.9,M,,0000*6B
$GPZDA,202559.74,03,05,2019,00,00*60
$GPGGA,202559.86,4230.368793,N,14327.387348,E,1,08,1.0,57.57,M,35.9,M,,0000*68
$GPZDA,202559.86,03,05,2019,00,00*6D
$GPGGA,202600.34,4230.366245,N,14327.389673,E,1,08,1.0,56.80,M,35.9,M,,0000*66
$GPZDA,202600.34,03,05,2019,00,00*6B
$GPGGA,202600.43,4230.368898,N,14327.387783,E,1,08,1.0,58.84,M,35.9,M,,0000*68
$GPZDA,202600.43,03,05,2019,00,00*6B
$GPGGA,202600.91,4230.365854,N,14327.389390,E,1,08,1.0,53.15,M,35.9,M,,0000*61
$GPZDA,202600.91,03,05,2019,00,00*64
$GPGGA,202601.03,4230.369394,N,14327.385913,E,1,08,1.0,50.44,M,35.9,M,,0000*6A
$GPZDA,202601.03,03,05,2019,00,00*6E
$GPGGA,202601.48,4230.367088,N,14327.387196,E,1,08,1.0,56.57,M,35.9,M,,0000*66
$GPZDA,202601.48,03,05,2019,00,00*61
$GPGGA,202601.54,4230.367088,N,14327.387196,E,1,08,1.0,56.57,M,35.9,M,,0000*6B
$GPZDA,202601.54,03,05,2019,00,00*6C
$GPGGA,202601.60,4230.367975,N,14327.388197,E,1,08,1.0,65.14,M,35.9,M,,0000*6E
$GPZDA,202601.60,03,05,2019,00,00*6B
$GPGGA,202602.05,4230.367772,N,14327.387044,E,1,08,1.0,59.63,M,35.9,M,,0000*68
$GPZDA,202602.05,03,05,2019,00,00*6B
$GPGGA,202602.17,4230.368749,N,14327.386458,E,1,08,1.0,62.10,M,35.9,M,,0000*68
$GPZDA,202602.17,03,05,2019,00,00*68
$GPGGA,202602.62,4230.368605,N,14327.388217,E,1,08,1.0,59.43,M,35.9,M,,0000*6E
$GPZDA,202602.62,03,05,2019,00,00*6A
$GPGGA,202602.74,4230.368373,N,14327.388197,E,1,08,1.0,65.82,M,35.9,M,,0000*64
$GPZDA,202602.74,03,05,2019,00,00*6D
$GPGGA,202603.22,4230.369944,N,14327.386458,E,1,08,1.0,64.13,M,35.9,M,,0000*68
$GPZDA,202603.22,03,05,2019,00,00*6F
$GPGGA,202603.34,4230.369509,N,14327.385285,E,1,08,1.0,65.00,M,35.9,M,,0000*6C
$GPZDA,202603.34,03,05,2019,00,00*68
$GPGGA,202603.79,4230.369538,N,14327.386741,E,1,08,1.0,66.42,M,35.9,M,,0000*6C
$GPZDA,202603.79,03,05,2019,00,00*61
$GPGGA,202603.91,4230.367479,N,14327.390066,E,1,08,1.0,73.55,M,35.9,M,,0000*67
$GPZDA,202603.91,03,05,2019,00,00*67
$GPGGA,202604.48,4230.367945,N,14327.389328,E,1,08,1.0,77.04,M,35.9,M,,0000*67
$GPZDA,202604.48,03,05,2019,00,00*64
$GPGGA,202604.93,4230.369998,N,14327.386285,E,1,08,1.0,72.90,M,35.9,M,,0000*6E
$GPZDA,202604.93,03,05,2019,00,00*62
$GPGGA,202605.05,4230.369263,N,14327.385830,E,1,08,1.0,77.34,M,35.9,M,,0000*63
$GPZDA,202605.05,03,05,2019,00,00*6C
$GPGGA,202605.53,4230.369961,N,14327.385112,E,1,08,1.0,74.45,M,35.9,M,,0000*65
$GPZDA,202605.53,03,05,2019,00,00*6F
$GPGGA,202605.65,4230.369758,N,14327.386547,E,1,08,1.0,82.26,M,35.9,M,,0000*6F
$GPZDA,202605.65,03,05,2019,00,00*6A
$GPGGA,202605.68,4230.369758,N,14327.386547,E,1,08,1.0,82.26,M,35.9,M,,0000*62
$GPZDA,202605.68,03,05,2019,00,00*67
$GPGGA,202606.10,4230.371579,N,14327.383484,E,1,08,1.0,84.50,M,35.9,M,,0000*6A
$GPZDA,202606.10,03,05,2019,00,00*6B
$GPGGA,202606.22,4230.369903,N,14327.384788,E,1,08,1.0,84.93,M,35.9,M,,0000*64
$GPZDA,202606.22,03,05,2019,00,00*6A
$GPGGA,202606.67,4230.370836,N,14327.383311,E,1,08,1.0,91.92,M,35.9,M,,0000*6C
$GPZDA,202606.67,03,05,2019,00,00*6B
$GPGGA,202606.79,4230.369971,N,14327.384050,E,1,08,1.0,87.75,M,35.9,M,,0000*66
$GPZDA,202606.79,03,05,2019,00,00*64
$GPGGA,202606.85,4230.369971,N,14327.384050,E,1,08,1.0,87.75,M,35.9,M,,0000*65
$GPZDA,202606.85,03,05,2019,00,00*67
$GPGGA,202607.36,4230.370431,N,14327.383594,E,1,08,1.0,94.22,M,35.9,M,,0000*67
$GPZDA,202607.36,03,05,2019,00,00*6E
$GPGGA,202607.81,4230.371469,N,14327.382552,E,1,08,1.0,102.48,M,35.9,M,,0000*5E
$GPZDA,202607.81,03,05,2019,00,00*62
$GPGGA,202607.87,4230.371469,N,14327.382552,E,1,08,1.0,102.48,M,35.9,M,,0000*58
$GPZDA,202607.87,03,05,2019,00,00*64
$GPGGA,202607.93,4230.370988,N,14327.383856,E,1,08,1.0,104.94,M,35.9,M,,0000*51
$GPZDA,202607.93,03,05,2019,00,00*61
$GPGGA,202607.99,4230.370988,N,14327.383856,E,1,08,1.0,104.94,M,35.9,M,,0000*5B
$GPZDA,202607.99,03,05,2019,00,00*6B
$GPGGA,202608.41,4230.371921,N,14327.382380,E,1,08,1.0,111.93,M,35.9,M,,0000*51
$GPZDA,202608.41,03,05,2019,00,00*61
$GPGGA,202608.53,4230.371034,N,14327.383967,E,1,08,1.0,116.68,M,35.9,M,,0000*5E
$GPZDA,202608.53,03,05,2019,00,00*62
$GPGGA,202608.98,4230.371592,N,14327.381641,E,1,08,1.0,114.08,M,35.9,M,,0000*5D
$GPZDA,202608.98,03,05,2019,00,00*65
$GPGGA,202609.55,4230.371714,N,14327.380730,E,1,08,1.0,125.67,M,35.9,M,,0000*5C
$GPZDA,202609.55,03,05,2019,00,00*65
$GPGGA,202609.67,4230.372616,N,14327.381165,E,1,08,1.0,128.29,M,35.9,M,,0000*5D
$GPZDA,202609.67,03,05,2019,00,00*64
$GPGGA,202610.15,4230.372376,N,14327.381427,E,1,08,1.0,137.65,M,35.9,M,,0000*56
$GPZDA,202610.15,03,05,2019,00,00*69
$GPGGA,202610.24,4230.372181,N,14327.382579,E,1,08,1.0,142.49,M,35.9,M,,0000*5B
$GPZDA,202610.24,03,05,2019,00,00*6B
$GPGGA,202610.69,4230.371731,N,14327.381972,E,1,08,1.0,149.31,M,35.9,M,,0000*5C
$GPZDA,202610.69,03,05,2019,00,00*62
$GPGGA,202610.81,4230.371717,N,14327.382538,E,1,08,1.0,155.26,M,35.9,M,,0000*54
$GPZDA,202610.81,03,05,2019,00,00*64
$GPGGA,202611.29,4230.372582,N,14327.381800,E,1,08,1.0,159.44,M,35.9,M,,0000*57
$GPZDA,202611.29,03,05,2019,00,00*67
$GPGGA,202611.35,4230.372582,N,14327.381800,E,1,08,1.0,159.44,M,35.9,M,,0000*5A
$GPZDA,202611.35,03,05,2019,00,00*6A
$GPGGA,202611.41,4230.371756,N,14327.382931,E,1,08,1.0,169.99,M,35.9,M,,0000*52
$GPZDA,202611.41,03,05,2019,00,00*69
$GPGGA,202611.86,4230.372628,N,14327.381910,E,1,08,1.0,171.18,M,35.9,M,,0000*52
$GPZDA,202611.86,03,05,2019,00,00*62
$GPGGA,202611.98,4230.371817,N,14327.382475,E,1,08,1.0,175.78,M,35.9,M,,0000*53
$GPZDA,202611.98,03,05,2019,00,00*6D
$GPGGA,202612.43,4230.371969,N,14327.383020,E,1,08,1.0,188.80,M,35.9,M,,0000*5E
$GPZDA,202612.43,03,05,2019,00,00*68
$GPGGA,202612.55,4230.371382,N,14327.383890,E,1,08,1.0,189.98,M,35.9,M,,0000*5D
$GPZDA,202612.55,03,05,2019,00,00*6F
$GPGGA,202613.03,4230.371023,N,14327.384283,E,1,08,1.0,204.03,M,35.9,M,,0000*5C
$GPZDA,202613.03,03,05,2019,00,00*6D
$GPGGA,202613.12,4230.371309,N,14327.384131,E,1,08,1.0,206.41,M,35.9,M,,0000*59
$GPZDA,202613.12,03,05,2019,00,00*6D
$GPGGA,202613.72,4230.370733,N,14327.383938,E,1,08,1.0,220.89,M,35.9,M,,0000*55
$GPZDA,202613.72,03,05,2019,00,00*6B
$GPGGA,202613.78,4230.370733,N,14327.383938,E,1,08,1.0,220.89,M,35.9,M,,0000*5F
$GPZDA,202613.78,03,05,2019,00,00*61
$GPGGA,202614.17,4230.370335,N,14327.386525,E,1,08,1.0,233.54,M,35.9,M,,0000*54
$GPZDA,202614.17,03,05,2019,00,00*6F
$GPGGA,202614.29,4230.369411,N,14327.386939,E,1,08,1.0,239.84,M,35.9,M,,0000*56
$GPZDA,202614.29,03,05,2019,00,00*62
$GPGGA,202614.74,4230.369096,N,14327.388222,E,1,08,1.0,249.36,M,35.9,M,,0000*54
$GPZDA,202614.74,03,05,2019,00,00*6A
$GPGGA,202614.86,4230.367691,N,14327.389940,E,1,08,1.0,258.12,M,35.9,M,,0000*5E
$GPZDA,202614.86,03,05,2019,00,00*67
$GPGGA,202615.31,4230.368172,N,14327.391223,E,1,08,1.0,268.99,M,35.9,M,,0000*51
$GPZDA,202615.31,03,05,2019,00,00*6A
$GPGGA,202615.43,4230.367647,N,14327.391637,E,1,08,1.0,275.97,M,35.9,M,,0000*59
$GPZDA,202615.43,03,05,2019,00,00*6F
$GPGGA,202615.91,4230.366746,N,14327.393789,E,1,08,1.0,286.67,M,35.9,M,,0000*52
$GPZDA,202615.91,03,05,2019,00,00*60
$GPGGA,202616.03,4230.365710,N,14327.394051,E,1,08,1.0,294.68,M,35.9,M,,0000*53
$GPZDA,202616.03,03,05,2019,00,00*68
$GPGGA,202616.48,4230.365304,N,14327.396921,E,1,08,1.0,310.30,M,35.9,M,,0000*51
$GPZDA,202616.48,03,05,2019,00,00*67
$GPGGA,202616.60,4230.364562,N,14327.396748,E,1,08,1.0,317.72,M,35.9,M,,0000*5C
$GPZDA,202616.60,03,05,2019,00,00*6D
$GPGGA,202617.05,4230.363711,N,14327.402095,E,1,08,1.0,334.24,M,35.9,M,,0000*50
$GPZDA,202617.05,03,05,2019,00,00*6F
$GPGGA,202617.17,4230.362339,N,14327.399315,E,1,08,1.0,334.05,M,35.9,M,,0000*51
$GPZDA,202617.17,03,05,2019,00,00*6C
$GPGGA,202617.65,4230.361683,N,14327.406096,E,1,08,1.0,359.05,M,35.9,M,,0000*51
$GPZDA,202617.65,03,05,2019,00,00*69
$GPGGA,202617.77,4230.360528,N,14327.403902,E,1,08,1.0,358.43,M,35.9,M,,0000*53
$GPZDA,202617.77,03,05,2019,00,00*6A
$GPGGA,202618.22,4230.359880,N,14327.410401,E,1,08,1.0,380.46,M,35.9,M,,0000*55
$GPZDA,202618.22,03,05,2019,00,00*65
$GPGGA,202618.34,4230.357998,N,14327.407469,E,1,08,1.0,381.30,M,35.9,M,,0000*5C
$GPZDA,202618.34,03,05,2019,00,00*62
$GPGGA,202618.79,4230.357657,N,14327.412967,E,1,08,1.0,396.79,M,35.9,M,,0000*55
$GPZDA,202618.79,03,05,2019,00,00*6B
$GPGGA,202618.91,4230.355518,N,14327.414230,E,1,08,1.0,409.99,M,35.9,M,,0000*59
$GPZDA,202618.91,03,05,2019,00,00*6D
$GPGGA,202619.36,4230.354862,N,14327.418424,E,1,08,1.0,421.67,M,35.9,M,,0000*50
$GPZDA,202619.36,03,05,2019,00,00*61
$GPGGA,202619.48,4230.353233,N,14327.419838,E,1,08,1.0,433.85,M,35.9,M,,0000*5F
$GPZDA,202619.48,03,05,2019,00,00*68
$GPGGA,202620.05,4230.349986,N,14327.428055,E,1,08,1.0,462.61,M,35.9,M,,0000*5D
$GPZDA,202620.05,03,05,2019,00,00*6B
$GPGGA,202620.53,4230.348596,N,14327.431794,E,1,08,1.0,478.74,M,35.9,M,,0000*5F
$GPZDA,202620.53,03,05,2019,00,00*68
$GPGGA,202620.65,4230.347108,N,14327.434815,E,1,08,1.0,490.62,M,35.9,M,,0000*54
$GPZDA,202620.65,03,05,2019,00,00*6D
$GPGGA,202621.10,4230.344733,N,14327.439423,E,1,08,1.0,507.26,M,35.9,M,,0000*51
$GPZDA,202621.10,03,05,2019,00,00*6E
$GPGGA,202621.22,4230.343433,N,14327.441576,E,1,08,1.0,517.28,M,35.9,M,,0000*55
$GPZDA,202621.22,03,05,2019,00,00*6F
$GPGGA,202621.28,4230.343433,N,14327.441576,E,1,08,1.0,517.28,M,35.9,M,,0000*5F
$GPZDA,202621.28,03,05,2019,00,00*65
$GPGGA,202621.67,4230.340751,N,14327.447184,E,1,08,1.0,540.46,M,35.9,M,,0000*55
$GPZDA,202621.67,03,05,2019,00,00*6E
$GPGGA,202622.39,4230.335610,N,14327.456118,E,1,08,1.0,570.09,M,35.9,M,,0000*56
$GPZDA,202622.39,03,05,2019,00,00*66
$GPGGA,202622.84,4230.332566,N,14327.465485,E,1,08,1.0,604.36,M,35.9,M,,0000*58
$GPZDA,202622.84,03,05,2019,00,00*60
$GPGGA,202623.41,4230.327636,N,14327.475288,E,1,08,1.0,636.52,M,35.9,M,,0000*5B
$GPZDA,202623.41,03,05,2019,00,00*68
$GPGGA,202623.53,4230.326937,N,14327.476005,E,1,08,1.0,639.41,M,35.9,M,,0000*5E
$GPZDA,202623.53,03,05,2019,00,00*6B
$GPGGA,202623.98,4230.323487,N,14327.483069,E,1,08,1.0,662.66,M,35.9,M,,0000*51
$GPZDA,202623.98,03,05,2019,00,00*6C
$GPGGA,202624.10,4230.322246,N,14327.488132,E,1,08,1.0,675.53,M,35.9,M,,0000*58
$GPZDA,202624.10,03,05,2019,00,00*6B
$GPGGA,202624.16,4230.322246,N,14327.488132,E,1,08,1.0,675.53,M,35.9,M,,0000*5E
$GPZDA,202624.16,03,05,2019,00,00*6D
$GPGGA,202624.55,4230.318655,N,14327.493589,E,1,08,1.0,699.07,M,35.9,M,,0000*5B
$GPZDA,202624.55,03,05,2019,00,00*6A
$GPGGA,202625.15,4230.313048,N,14327.505846,E,1,08,1.0,738.51,M,35.9,M,,0000*56
$GPZDA,202625.15,03,05,2019,00,00*6F
$GPGGA,202625.27,4230.311125,N,14327.507695,E,1,08,1.0,751.28,M,35.9,M,,0000*5C
$GPZDA,202625.27,03,05,2019,00,00*6E
$GPGGA,202625.72,4230.307245,N,14327.519256,E,1,08,1.0,782.80,M,35.9,M,,0000*56
$GPZDA,202625.72,03,05,2019,00,00*6E
$GPGGA,202625.84,4230.304961,N,14327.522277,E,1,08,1.0,793.33,M,35.9,M,,0000*52
$GPZDA,202625.84,03,05,2019,00,00*67
$GPGGA,202625.90,4230.304961,N,14327.522277,E,1,08,1.0,793.33,M,35.9,M,,0000*57
$GPZDA,202625.90,03,05,2019,00,00*62
$GPGGA,202625.96,4230.304961,N,14327.522277,E,1,08,1.0,793.33,M,35.9,M,,0000*51
$GPZDA,202625.96,03,05,2019,00,00*64
$GPGGA,202626.29,4230.301533,N,14327.531079,E,1,08,1.0,820.98,M,35.9,M,,0000*50
$GPZDA,202626.29,03,05,2019,00,00*63
$GPGGA,202626.41,4230.299054,N,14327.535252,E,1,08,1.0,836.35,M,35.9,M,,0000*55
$GPZDA,202626.41,03,05,2019,00,00*6D
$GPGGA,202626.89,4230.294905,N,14327.543032,E,1,08,1.0,862.49,M,35.9,M,,0000*5E
$GPZDA,202626.89,03,05,2019,00,00*69
$GPGGA,202626.98,4230.293523,N,14327.546488,E,1,08,1.0,875.64,M,35.9,M,,0000*58
$GPZDA,202626.98,03,05,2019,00,00*69
$GPGGA,202627.46,4230.287825,N,14327.557745,E,1,08,1.0,907.88,M,35.9,M,,0000*50
$GPZDA,202627.46,03,05,2019,00,00*6B
$GPGGA,202627.58,4230.288375,N,14327.555703,E,1,08,1.0,908.24,M,35.9,M,,0000*57
$GPZDA,202627.58,03,05,2019,00,00*64
$GPGGA,202628.03,4230.281513,N,14327.571002,E,1,08,1.0,953.19,M,35.9,M,,0000*59
$GPZDA,202628.03,03,05,2019,00,00*65
$GPGGA,202628.15,4230.281183,N,14327.570264,E,1,08,1.0,955.34,M,35.9,M,,0000*59
$GPZDA,202628.15,03,05,2019,00,00*62
$GPGGA,202628.63,4230.274795,N,14327.584541,E,1,08,1.0,1000.81,M,35.9,M,,0000*6E
$GPZDA,202628.63,03,05,2019,00,00*63
$GPGGA,202628.72,4230.274690,N,14327.584107,E,1,08,1.0,999.54,M,35.9,M,,0000*5C
$GPZDA,202628.72,03,05,2019,00,00*63
$GPGGA,202629.20,4230.267776,N,14327.598797,E,1,08,1.0,1051.99,M,35.9,M,,0000*6E
$GPZDA,202629.20,03,05,2019,00,00*65
$GPGGA,202629.32,4230.267754,N,14327.597059,E,1,08,1.0,1047.59,M,35.9,M,,0000*6C
$GPZDA,202629.32,03,05,2019,00,00*66
$GPGGA,202629.77,4230.263139,N,14327.608164,E,1,08,1.0,1083.56,M,35.9,M,,0000*69
$GPZDA,202629.77,03,05,2019,00,00*67
$GPGGA,202630.34,4230.256407,N,14327.622268,E,1,08,1.0,1137.12,M,35.9,M,,0000*61
$GPZDA,202630.34,03,05,2019,00,00*68
$GPGGA,202630.46,4230.252516,N,14327.625854,E,1,08,1.0,1150.90,M,35.9,M,,0000*68
$GPZDA,202630.46,03,05,2019,00,00*6D
$GPGGA,202630.94,4230.248549,N,14327.635633,E,1,08,1.0,1191.48,M,35.9,M,,0000*60
$GPZDA,202630.94,03,05,2019,00,00*62
$GPGGA,202631.03,4230.245994,N,14327.640826,E,1,08,1.0,1207.00,M,35.9,M,,0000*66
$GPZDA,202631.03,03,05,2019,00,00*6D
$GPGGA,202631.51,4230.240036,N,14327.650606,E,1,08,1.0,1244.20,M,35.9,M,,0000*6D
$GPZDA,202631.51,03,05,2019,00,00*6A
$GPGGA,202631.63,4230.237368,N,14327.655647,E,1,08,1.0,1261.43,M,35.9,M,,0000*66
$GPZDA,202631.63,03,05,2019,00,00*6B
$GPGGA,202632.20,4230.231103,N,14327.669012,E,1,08,1.0,1318.50,M,35.9,M,,0000*6F
$GPZDA,202632.20,03,05,2019,00,00*6F
$GPGGA,202632.65,4230.225175,N,14327.680246,E,1,08,1.0,1357.12,M,35.9,M,,0000*63
$GPZDA,202632.65,03,05,2019,00,00*6E
$GPGGA,202632.77,4230.224845,N,14327.679508,E,1,08,1.0,1359.26,M,35.9,M,,0000*69
$GPZDA,202632.77,03,05,2019,00,00*6D
$GPGGA,202633.22,4230.217114,N,14327.695044,E,1,08,1.0,1419.29,M,35.9,M,,0000*66
$GPZDA,202633.22,03,05,2019,00,00*6C
$GPGGA,202633.79,4230.211728,N,14327.704519,E,1,08,1.0,1461.25,M,35.9,M,,0000*60
$GPZDA,202633.79,03,05,2019,00,00*62
$GPGGA,202633.85,4230.211728,N,14327.704519,E,1,08,1.0,1461.25,M,35.9,M,,0000*63
$GPZDA,202633.85,03,05,2019,00,00*61
$GPGGA,202633.91,4230.211728,N,14327.704519,E,1,08,1.0,1461.25,M,35.9,M,,0000*66
$GPZDA,202633.91,03,05,2019,00,00*64
$GPGGA,202634.36,4230.203947,N,14327.719448,E,1,08,1.0,1528.78,M,35.9,M,,0000*65
$GPZDA,202634.36,03,05,2019,00,00*6E
$GPGGA,202634.48,4230.199539,N,14327.723164,E,1,08,1.0,1546.56,M,35.9,M,,0000*6F
$GPZDA,202634.48,03,05,2019,00,00*67
$GPGGA,202634.96,4230.194573,N,14327.734376,E,1,08,1.0,1593.60,M,35.9,M,,0000*65
$GPZDA,202634.96,03,05,2019,00,00*64
$GPGGA,202635.05,4230.191207,N,14327.740134,E,1,08,1.0,1613.72,M,35.9,M,,0000*60
$GPZDA,202635.05,03,05,2019,00,00*6F
$GPGGA,202635.53,4230.186289,N,14327.748869,E,1,08,1.0,1659.18,M,35.9,M,,0000*68
$GPZDA,202635.53,03,05,2019,00,00*6C
$GPGGA,202635.59,4230.186289,N,14327.748869,E,1,08,1.0,1659.18,M,35.9,M,,0000*62
$GPZDA,202635.59,03,05,2019,00,00*66
$GPGGA,202635.65,4230.182991,N,14327.753889,E,1,08,1.0,1682.13,M,35.9,M,,0000*62
$GPZDA,202635.65,03,05,2019,00,00*69
$GPGGA,202636.10,4230.177201,N,14327.763645,E,1,08,1.0,1726.39,M,35.9,M,,0000*61
$GPZDA,202636.10,03,05,2019,00,00*68
$GPGGA,202636.22,4230.173889,N,14327.769229,E,1,08,1.0,1755.29,M,35.9,M,,0000*6F
$GPZDA,202636.22,03,05,2019,00,00*69
$GPGGA,202636.79,4230.168707,N,14327.779854,E,1,08,1.0,1802.76,M,35.9,M,,0000*64
$GPZDA,202636.79,03,05,2019,00,00*67
$GPGGA,202637.24,4230.159319,N,14327.795346,E,1,08,1.0,1873.54,M,35.9,M,,0000*68
$GPZDA,202637.24,03,05,2019,00,00*6E
$GPGGA,202637.36,4230.159786,N,14327.794608,E,1,08,1.0,1877.03,M,35.9,M,,0000*61
$GPZDA,202637.36,03,05,2019,00,00*6D
$GPGGA,202637.81,4230.150894,N,14327.810816,E,1,08,1.0,1952.73,M,35.9,M,,0000*6B
$GPZDA,202637.81,03,05,2019,00,00*61
$GPGGA,202637.93,4230.149993,N,14327.810382,E,1,08,1.0,1950.11,M,35.9,M,,0000*66
$GPZDA,202637.93,03,05,2019,00,00*62
$GPGGA,202638.41,4230.141463,N,14327.825417,E,1,08,1.0,2028.03,M,35.9,M,,0000*67
$GPZDA,202638.41,03,05,2019,00,00*62
$GPGGA,202638.53,4230.141177,N,14327.825569,E,1,08,1.0,2025.65,M,35.9,M,,0000*61
$GPZDA,202638.53,03,05,2019,00,00*61
$GPGGA,202638.98,4230.135539,N,14327.835868,E,1,08,1.0,2082.93,M,35.9,M,,0000*62
$GPZDA,202638.98,03,05,2019,00,00*66
$GPGGA,202639.55,4230.126716,N,14327.851337,E,1,08,1.0,2161.44,M,35.9,M,,0000*6A
$GPZDA,202639.55,03,05,2019,00,00*66
$GPGGA,202639.67,4230.123195,N,14327.856052,E,1,08,1.0,2187.80,M,35.9,M,,0000*64
$GPZDA,202639.67,03,05,2019,00,00*67
$GPGGA,202640.12,4230.116895,N,14327.868239,E,1,08,1.0,2246.42,M,35.9,M,,0000*65
$GPZDA,202640.12,03,05,2019,00,00*6B
$GPGGA,202640.24,4230.113877,N,14327.873388,E,1,08,1.0,2274.72,M,35.9,M,,0000*6A
$GPZDA,202640.24,03,05,2019,00,00*6E
$GPGGA,202640.69,4230.107226,N,14327.883100,E,1,08,1.0,2331.08,M,35.9,M,,0000*68
$GPZDA,202640.69,03,05,2019,00,00*67
$GPGGA,202640.81,4230.104291,N,14327.886946,E,1,08,1.0,2356.26,M,35.9,M,,0000*63
$GPZDA,202640.81,03,05,2019,00,00*61
$GPGGA,202641.29,4230.098089,N,14327.899849,E,1,08,1.0,2419.12,M,35.9,M,,0000*64
$GPZDA,202641.29,03,05,2019,00,00*62
$GPGGA,202641.32,4230.098089,N,14327.899849,E,1,08,1.0,2419.12,M,35.9,M,,0000*6E
$GPZDA,202641.32,03,05,2019,00,00*68
$GPGGA,202641.38,4230.098089,N,14327.899849,E,1,08,1.0,2419.12,M,35.9,M,,0000*64
$GPZDA,202641.38,03,05,2019,00,00*62
$GPGGA,202641.86,4230.087939,N,14327.916012,E,1,08,1.0,2506.24,M,35.9,M,,0000*67
$GPZDA,202641.86,03,05,2019,00,00*67
$GPGGA,202641.98,4230.088518,N,14327.915426,E,1,08,1.0,2508.03,M,35.9,M,,0000*63
$GPZDA,202641.98,03,05,2019,00,00*68
$GPGGA,202642.43,4230.078864,N,14327.932305,E,1,08,1.0,2600.06,M,35.9,M,,0000*62
$GPZDA,202642.43,03,05,2019,00,00*6D
$GPGGA,202642.49,4230.078864,N,14327.932305,E,1,08,1.0,2600.06,M,35.9,M,,0000*68
$GPZDA,202642.49,03,05,2019,00,00*67
$GPGGA,202642.55,4230.078061,N,14327.932587,E,1,08,1.0,2601.69,M,35.9,M,,0000*6C
$GPZDA,202642.55,03,05,2019,00,00*6A
$GPGGA,202643.00,4230.068588,N,14327.948879,E,1,08,1.0,2694.84,M,35.9,M,,0000*60
$GPZDA,202643.00,03,05,2019,00,00*6B
$GPGGA,202643.12,4230.067792,N,14327.948879,E,1,08,1.0,2693.49,M,35.9,M,,0000*63
$GPZDA,202643.12,03,05,2019,00,00*68
$GPGGA,202643.57,4230.061526,N,14327.959154,E,1,08,1.0,2756.48,M,35.9,M,,0000*66
$GPZDA,202643.57,03,05,2019,00,00*69
$GPGGA,202643.69,4230.058682,N,14327.963998,E,1,08,1.0,2788.87,M,35.9,M,,0000*6D
$GPZDA,202643.69,03,05,2019,00,00*64
$GPGGA,202644.14,4230.051746,N,14327.976444,E,1,08,1.0,2856.18,M,35.9,M,,0000*62
$GPZDA,202644.14,03,05,2019,00,00*69
$GPGGA,202644.26,4230.048421,N,14327.982591,E,1,08,1.0,2891.02,M,35.9,M,,0000*6B
$GPZDA,202644.26,03,05,2019,00,00*68
$GPGGA,202644.32,4230.048421,N,14327.982591,E,1,08,1.0,2891.02,M,35.9,M,,0000*6E
$GPZDA,202644.32,03,05,2019,00,00*6D
$GPGGA,202644.74,4230.041058,N,14327.993582,E,1,08,1.0,2956.23,M,35.9,M,,0000*64
$GPZDA,202644.74,03,05,2019,00,00*6F
$GPGGA,202644.83,4230.038214,N,14327.998426,E,1,08,1.0,2988.62,M,35.9,M,,0000*6A
$GPZDA,202644.83,03,05,2019,00,00*67
$GPGGA,202645.31,4230.030837,N,14328.009981,E,1,08,1.0,3059.78,M,35.9,M,,0000*60
$GPZDA,202645.31,03,05,2019,00,00*6F
$GPGGA,202645.43,4230.027484,N,14328.014673,E,1,08,1.0,3093.20,M,35.9,M,,0000*62
$GPZDA,202645.43,03,05,2019,00,00*6A
$GPGGA,202645.88,4230.020534,N,14328.027683,E,1,08,1.0,3166.46,M,35.9,M,,0000*6C
$GPZDA,202645.88,03,05,2019,00,00*6D
$GPGGA,202646.00,4230.011246,N,14328.039995,E,1,08,1.0,3179.31,M,35.9,M,,0000*66
$GPZDA,202646.00,03,05,2019,00,00*6E
$GPGGA,202646.45,4230.009225,N,14328.044515,E,1,08,1.0,3269.25,M,35.9,M,,0000*62
$GPZDA,202646.45,03,05,2019,00,00*6F
$GPGGA,202647.02,4229.998140,N,14328.064234,E,1,08,1.0,3381.95,M,35.9,M,,0000*63
$GPZDA,202647.02,03,05,2019,00,00*6D
$GPGGA,202647.14,4229.997706,N,14328.063062,E,1,08,1.0,3382.82,M,35.9,M,,0000*6C
$GPZDA,202647.14,03,05,2019,00,00*6A
$GPGGA,202647.59,4229.987823,N,14328.082498,E,1,08,1.0,3494.57,M,35.9,M,,0000*6A
$GPZDA,202647.59,03,05,2019,00,00*63
$GPGGA,202648.28,4229.976089,N,14328.100457,E,1,08,1.0,3608.59,M,35.9,M,,0000*64
$GPZDA,202648.28,03,05,2019,00,00*6A
$GPGGA,202648.76,4229.967826,N,14328.113595,E,1,08,1.0,3684.50,M,35.9,M,,0000*62
$GPZDA,202648.76,03,05,2019,00,00*61
$GPGGA,202648.88,4229.963551,N,14328.118698,E,1,08,1.0,3724.23,M,35.9,M,,0000*60
$GPZDA,202648.88,03,05,2019,00,00*60
$GPGGA,202649.33,4229.956183,N,14328.132552,E,1,08,1.0,3805.73,M,35.9,M,,0000*68
$GPZDA,202649.33,03,05,2019,00,00*61
$GPGGA,202649.90,4229.943736,N,14328.151790,E,1,08,1.0,3928.59,M,35.9,M,,0000*62
$GPZDA,202649.90,03,05,2019,00,00*68
$GPGGA,202650.02,4229.939790,N,14328.157631,E,1,08,1.0,3966.17,M,35.9,M,,0000*6C
$GPZDA,202650.02,03,05,2019,00,00*6B
$GPGGA,202650.50,4229.931004,N,14328.171180,E,1,08,1.0,4049.06,M,35.9,M,,0000*63
$GPZDA,202650.50,03,05,2019,00,00*6C
$GPGGA,202650.59,4229.927261,N,14328.178171,E,1,08,1.0,4092.16,M,35.9,M,,0000*6C
$GPZDA,202650.59,03,05,2019,00,00*65
$GPGGA,202651.19,4229.919460,N,14328.190850,E,1,08,1.0,4174.54,M,35.9,M,,0000*60
$GPZDA,202651.19,03,05,2019,00,00*60
$GPGGA,202651.64,4229.906631,N,14328.212105,E,1,08,1.0,4304.09,M,35.9,M,,0000*6F
$GPZDA,202651.64,03,05,2019,00,00*6A
$GPGGA,202651.76,4229.905437,N,14328.212105,E,1,08,1.0,4302.07,M,35.9,M,,0000*63
$GPZDA,202651.76,03,05,2019,00,00*69
$GPGGA,202652.24,4229.891694,N,14328.233489,E,1,08,1.0,4434.95,M,35.9,M,,0000*6B
$GPZDA,202652.24,03,05,2019,00,00*6D
$GPGGA,202652.33,4229.891875,N,14328.232903,E,1,08,1.0,4436.07,M,35.9,M,,0000*6B
$GPZDA,202652.33,03,05,2019,00,00*6B
$GPGGA,202652.39,4229.891875,N,14328.232903,E,1,08,1.0,4436.07,M,35.9,M,,0000*61
$GPZDA,202652.39,03,05,2019,00,00*61
$GPGGA,202652.81,4229.882783,N,14328.247448,E,1,08,1.0,4525.50,M,35.9,M,,0000*67
$GPZDA,202652.81,03,05,2019,00,00*62
$GPGGA,202653.38,4229.868517,N,14328.269242,E,1,08,1.0,4665.37,M,35.9,M,,0000*69
$GPZDA,202653.38,03,05,2019,00,00*61
$GPGGA,202653.50,4229.864499,N,14328.272737,E,1,08,1.0,4706.06,M,35.9,M,,0000*67
$GPZDA,202653.50,03,05,2019,00,00*6F
$GPGGA,202653.95,4229.855025,N,14328.289299,E,1,08,1.0,4802.19,M,35.9,M,,0000*6F
$GPZDA,202653.95,03,05,2019,00,00*66
$GPGGA,202654.07,4229.849144,N,14328.294965,E,1,08,1.0,4845.17,M,35.9,M,,0000*61
$GPZDA,202654.07,03,05,2019,00,00*6A
$GPGGA,202654.52,4229.840325,N,14328.309920,E,1,08,1.0,4942.93,M,35.9,M,,0000*63
$GPZDA,202654.52,03,05,2019,00,00*6A
$GPGGA,202654.64,4229.835024,N,14328.314999,E,1,08,1.0,4987.70,M,35.9,M,,0000*6C
$GPZDA,202654.64,03,05,2019,00,00*6F
$GPGGA,202654.70,4229.835024,N,14328.314999,E,1,08,1.0,4987.70,M,35.9,M,,0000*69
$GPZDA,202654.70,03,05,2019,00,00*6A
$GPGGA,202655.09,4229.824740,N,14328.332123,E,1,08,1.0,5088.43,M,35.9,M,,0000*69
$GPZDA,202655.09,03,05,2019,00,00*65
$GPGGA,202655.21,4229.820047,N,14328.338070,E,1,08,1.0,5136.41,M,35.9,M,,0000*6C
$GPZDA,202655.21,03,05,2019,00,00*6F
$GPGGA,202655.27,4229.820047,N,14328.338070,E,1,08,1.0,5136.41,M,35.9,M,,0000*6A
$GPZDA,202655.27,03,05,2019,00,00*69
$GPGGA,202655.69,4229.809044,N,14328.354174,E,1,08,1.0,5235.63,M,35.9,M,,0000*67
$GPZDA,202655.69,03,05,2019,00,00*63
$GPGGA,202656.26,4229.794249,N,14328.376657,E,1,08,1.0,5385.46,M,35.9,M,,0000*60
$GPZDA,202656.26,03,05,2019,00,00*6B
$GPGGA,202656.83,4229.778833,N,14328.398836,E,1,08,1.0,5538.02,M,35.9,M,,0000*63
$GPZDA,202656.83,03,05,2019,00,00*64
$GPGGA,202656.95,4229.777820,N,14328.398250,E,1,08,1.0,5537.11,M,35.9,M,,0000*6E
$GPZDA,202656.95,03,05,2019,00,00*63
$GPGGA,202657.40,4229.762245,N,14328.422749,E,1,08,1.0,5692.95,M,35.9,M,,0000*61
$GPZDA,202657.40,03,05,2019,00,00*6A
$GPGGA,202657.46,4229.762245,N,14328.422749,E,1,08,1.0,5692.95,M,35.9,M,,0000*67
$GPZDA,202657.46,03,05,2019,00,00*6C
$GPGGA,202657.52,4229.761999,N,14328.420709,E,1,08,1.0,5691.97,M,35.9,M,,0000*6C
$GPZDA,202657.52,03,05,2019,00,00*69
$GPGGA,202657.97,4229.751815,N,14328.438546,E,1,08,1.0,5796.94,M,35.9,M,,0000*66
$GPZDA,202657.97,03,05,2019,00,00*60
$GPGGA,202658.57,4229.735110,N,14328.462587,E,1,08,1.0,5956.56,M,35.9,M,,0000*65
$GPZDA,202658.57,03,05,2019,00,00*63
$GPGGA,202658.69,4229.729022,N,14328.469963,E,1,08,1.0,6010.32,M,35.9,M,,0000*62
$GPZDA,202658.69,03,05,2019,00,00*6E
$GPGGA,202659.14,4229.719082,N,14328.486756,E,1,08,1.0,6122.20,M,35.9,M,,0000*6A
$GPZDA,202659.14,03,05,2019,00,00*65
$GPGGA,202659.26,4229.712115,N,14328.495434,E,1,08,1.0,6177.74,M,35.9,M,,0000*6B
$GPZDA,202659.26,03,05,2019,00,00*64
$GPGGA,202659.71,4229.701561,N,14328.511640,E,1,08,1.0,6289.39,M,35.9,M,,0000*6B
$GPZDA,202659.71,03,05,2019,00,00*66
$GPGGA,202659.83,4229.695503,N,14328.520470,E,1,08,1.0,6344.58,M,35.9,M,,0000*6A
$GPZDA,202659.83,03,05,2019,00,00*6B
$GPGGA,202659.89,4229.695503,N,14328.520470,E,1,08,1.0,6344.58,M,35.9,M,,0000*60
$GPZDA,202659.89,03,05,2019,00,00*61
$GPGGA,202700.28,4229.683958,N,14328.537825,E,1,08,1.0,6459.71,M,35.9,M,,0000*69
$GPZDA,202700.28,03,05,2019,00,00*67
$GPGGA,202700.34,4229.683958,N,14328.537825,E,1,08,1.0,6459.71,M,35.9,M,,0000*64
$GPZDA,202700.34,03,05,2019,00,00*6A
$GPGGA,202700.40,4229.679274,N,14328.546068,E,1,08,1.0,6518.04,M,35.9,M,,0000*66
$GPZDA,202700.40,03,05,2019,00,00*69
$GPGGA,202700.88,4229.666139,N,14328.563422,E,1,08,1.0,6630.47,M,35.9,M,,0000*65
$GPZDA,202700.88,03,05,2019,00,00*6D
$GPGGA,202700.97,4229.666689,N,14328.561382,E,1,08,1.0,6630.84,M,35.9,M,,0000*67
$GPZDA,202700.97,03,05,2019,00,00*63
$GPGGA,202701.45,4229.648668,N,14328.588409,E,1,08,1.0,6809.40,M,35.9,M,,0000*65
$GPZDA,202701.45,03,05,2019,00,00*6D
$GPGGA,202701.57,4229.648459,N,14328.587541,E,1,08,1.0,6806.87,M,35.9,M,,0000*60
$GPZDA,202701.57,03,05,2019,00,00*6E
$GPGGA,202702.02,4229.631018,N,14328.613980,E,1,08,1.0,6987.23,M,35.9,M,,0000*65
$GPZDA,202702.02,03,05,2019,00,00*6D
$GPGGA,202702.14,4229.630110,N,14328.613828,E,1,08,1.0,6987.58,M,35.9,M,,0000*65
$GPZDA,202702.14,03,05,2019,00,00*6A
$GPGGA,202702.71,4229.611951,N,14328.639246,E,1,08,1.0,7166.44,M,35.9,M,,0000*69
$GPZDA,202702.71,03,05,2019,00,00*69
$GPGGA,202703.19,4229.600178,N,14328.656574,E,1,08,1.0,7287.96,M,35.9,M,,0000*69
$GPZDA,202703.19,03,05,2019,00,00*66
$GPGGA,202703.28,4229.592643,N,14328.668134,E,1,08,1.0,7352.06,M,35.9,M,,0000*61
$GPZDA,202703.28,03,05,2019,00,00*64
$GPGGA,202703.76,4229.580939,N,14328.684722,E,1,08,1.0,7476.40,M,35.9,M,,0000*6B
$GPZDA,202703.76,03,05,2019,00,00*6F
$GPGGA,202703.88,4229.574073,N,14328.694112,E,1,08,1.0,7536.19,M,35.9,M,,0000*6B
$GPZDA,202703.88,03,05,2019,00,00*6E
$GPGGA,202704.45,4229.554793,N,14328.721367,E,1,08,1.0,7729.16,M,35.9,M,,0000*6A
$GPZDA,202704.45,03,05,2019,00,00*68
$GPGGA,202704.90,4229.541739,N,14328.740275,E,1,08,1.0,7854.76,M,35.9,M,,0000*60
$GPZDA,202704.90,03,05,2019,00,00*60
$GPGGA,202705.02,4229.535048,N,14328.749359,E,1,08,1.0,7918.63,M,35.9,M,,0000*63
$GPZDA,202705.02,03,05,2019,00,00*6A
$GPGGA,202705.50,4229.521589,N,14328.768547,E,1,08,1.0,8046.53,M,35.9,M,,0000*6D
$GPZDA,202705.50,03,05,2019,00,00*6D
$GPGGA,202705.59,4229.516009,N,14328.778932,E,1,08,1.0,8115.56,M,35.9,M,,0000*60
$GPZDA,202705.59,03,05,2019,00,00*64
$GPGGA,202706.19,4229.502193,N,14328.795927,E,1,08,1.0,8244.19,M,35.9,M,,0000*6B
$GPZDA,202706.19,03,05,2019,00,00*63
$GPGGA,202706.64,4229.482820,N,14328.825040,E,1,08,1.0,8446.24,M,35.9,M,,0000*6F
$GPZDA,202706.64,03,05,2019,00,00*69
$GPGGA,202706.76,4229.481927,N,14328.824325,E,1,08,1.0,8440.65,M,35.9,M,,0000*6B
$GPZDA,202706.76,03,05,2019,00,00*6A
$GPGGA,202707.21,4229.462653,N,14328.854151,E,1,08,1.0,8646.94,M,35.9,M,,0000*65
$GPZDA,202707.21,03,05,2019,00,00*69
$GPGGA,202707.33,4229.462660,N,14328.853870,E,1,08,1.0,8643.97,M,35.9,M,,0000*6D
$GPZDA,202707.33,03,05,2019,00,00*6A
$GPGGA,202707.78,4229.448855,N,14328.873160,E,1,08,1.0,8782.94,M,35.9,M,,0000*67
$GPZDA,202707.78,03,05,2019,00,00*65
$GPGGA,202707.90,4229.443058,N,14328.882956,E,1,08,1.0,8852.41,M,35.9,M,,0000*66
$GPZDA,202707.90,03,05,2019,00,00*63
$GPGGA,202708.38,4229.428863,N,14328.901963,E,1,08,1.0,8987.73,M,35.9,M,,0000*62
$GPZDA,202708.38,03,05,2019,00,00*6E
$GPGGA,202708.95,4229.409145,N,14328.931176,E,1,08,1.0,9200.85,M,35.9,M,,0000*68
$GPZDA,202708.95,03,05,2019,00,00*69
$GPGGA,202709.07,4229.402301,N,14328.939214,E,1,08,1.0,9270.96,M,35.9,M,,0000*61
$GPZDA,202709.07,03,05,2019,00,00*63
$GPGGA,202709.13,4229.402301,N,14328.939214,E,1,08,1.0,9270.96,M,35.9,M,,0000*64
$GPZDA,202709.13,03,05,2019,00,00*66
$GPGGA,202709.52,4229.389113,N,14328.959085,E,1,08,1.0,9410.17,M,35.9,M,,0000*61
$GPZDA,202709.52,03,05,2019,00,00*63
$GPGGA,202709.58,4229.389113,N,14328.959085,E,1,08,1.0,9410.17,M,35.9,M,,0000*6B
$GPZDA,202709.58,03,05,2019,00,00*69
$GPGGA,202709.64,4229.381467,N,14328.967405,E,1,08,1.0,9481.91,M,35.9,M,,0000*6D
$GPZDA,202709.64,03,05,2019,00,00*66
$GPGGA,202710.09,4229.368992,N,14328.988575,E,1,08,1.0,9625.60,M,35.9,M,,0000*6B
$GPZDA,202710.09,03,05,2019,00,00*65
$GPGGA,202710.21,4229.362038,N,14328.996460,E,1,08,1.0,9697.41,M,35.9,M,,0000*62
$GPZDA,202710.21,03,05,2019,00,00*6F
$GPGGA,202710.66,4229.349011,N,14329.016588,E,1,08,1.0,9846.66,M,35.9,M,,0000*63
$GPZDA,202710.66,03,05,2019,00,00*6C
$GPGGA,202710.78,4229.348942,N,14329.017325,E,1,08,1.0,9843.84,M,35.9,M,,0000*6B
$GPZDA,202710.78,03,05,2019,00,00*63
$GPGGA,202711.26,4229.329570,N,14329.046202,E,1,08,1.0,10068.12,M,35.9,M,,0000*5D
$GPZDA,202711.26,03,05,2019,00,00*69
$GPGGA,202711.38,4229.330086,N,14329.046073,E,1,08,1.0,10064.12,M,35.9,M,,0000*5E
$GPZDA,202711.38,03,05,2019,00,00*66
$GPGGA,202711.83,4229.310563,N,14329.076986,E,1,08,1.0,10288.70,M,35.9,M,,0000*56
$GPZDA,202711.83,03,05,2019,00,00*66
$GPGGA,202711.89,4229.310563,N,14329.076986,E,1,08,1.0,10288.70,M,35.9,M,,0000*5C
$GPZDA,202711.89,03,05,2019,00,00*6C
$GPGGA,202711.95,4229.310632,N,14329.076248,E,1,08,1.0,10291.52,M,35.9,M,,0000*57
$GPZDA,202711.95,03,05,2019,00,00*61
$GPGGA,202712.40,4229.291934,N,14329.108612,E,1,08,1.0,10518.88,M,35.9,M,,0000*5F
$GPZDA,202712.40,03,05,2019,00,00*6A
$GPGGA,202712.52,4229.292303,N,14329.107159,E,1,08,1.0,10518.14,M,35.9,M,,0000*53
$GPZDA,202712.52,03,05,2019,00,00*69
$GPGGA,202712.58,4229.292303,N,14329.107159,E,1,08,1.0,10518.14,M,35.9,M,,0000*59
$GPZDA,202712.58,03,05,2019,00,00*63
$GPGGA,202712.97,4229.279413,N,14329.129167,E,1,08,1.0,10670.08,M,35.9,M,,0000*58
$GPZDA,202712.97,03,05,2019,00,00*60
$GPGGA,202713.09,4229.272407,N,14329.139801,E,1,08,1.0,10746.45,M,35.9,M,,0000*55
$GPZDA,202713.09,03,05,2019,00,00*66
$GPGGA,202713.57,4229.260060,N,14329.160051,E,1,08,1.0,10901.73,M,35.9,M,,0000*51
$GPZDA,202713.57,03,05,2019,00,00*6D
$GPGGA,202713.69,4229.253300,N,14329.172722,E,1,08,1.0,10979.08,M,35.9,M,,0000*5A
$GPZDA,202713.69,03,05,2019,00,00*60
$GPGGA,202714.26,4229.235456,N,14329.204903,E,1,08,1.0,11216.57,M,35.9,M,,0000*54
$GPZDA,202714.26,03,05,2019,00,00*6C
$GPGGA,202714.71,4229.221467,N,14329.227902,E,1,08,1.0,11373.70,M,35.9,M,,0000*56
$GPZDA,202714.71,03,05,2019,00,00*6E
$GPGGA,202714.83,4229.216765,N,14329.239834,E,1,08,1.0,11457.25,M,35.9,M,,0000*54
$GPZDA,202714.83,03,05,2019,00,00*63
$GPGGA,202715.28,4229.203677,N,14329.263264,E,1,08,1.0,11617.01,M,35.9,M,,0000*52
$GPZDA,202715.28,03,05,2019,00,00*63
$GPGGA,202716.57,4229.164335,N,14329.337424,E,1,08,1.0,12112.72,M,35.9,M,,0000*5F
$GPZDA,202716.57,03,05,2019,00,00*68
$GPGGA,202717.02,4229.146083,N,14329.376091,E,1,08,1.0,12365.85,M,35.9,M,,0000*55
$GPZDA,202717.02,03,05,2019,00,00*69
$GPGGA,202717.14,4229.145650,N,14329.374920,E,1,08,1.0,12366.73,M,35.9,M,,0000*52
$GPZDA,202717.14,03,05,2019,00,00*6E
$GPGGA,202717.59,4229.126200,N,14329.413866,E,1,08,1.0,12620.81,M,35.9,M,,0000*50
$GPZDA,202717.59,03,05,2019,00,00*67
$GPGGA,202717.71,4229.126200,N,14329.413866,E,1,08,1.0,12620.81,M,35.9,M,,0000*5A
$GPZDA,202717.71,03,05,2019,00,00*6D
$GPGGA,202718.19,4229.113034,N,14329.441163,E,1,08,1.0,12797.02,M,35.9,M,,0000*55
$GPZDA,202718.19,03,05,2019,00,00*6C
$GPGGA,202718.88,4229.086175,N,14329.493867,E,1,08,1.0,13146.07,M,35.9,M,,0000*58
$GPZDA,202718.88,03,05,2019,00,00*64
$GPGGA,202718.94,4229.086175,N,14329.493867,E,1,08,1.0,13146.07,M,35.9,M,,0000*55
$GPZDA,202718.94,03,05,2019,00,00*69
$GPGGA,202719.33,4229.073402,N,14329.521440,E,1,08,1.0,13325.92,M,35.9,M,,0000*5C
$GPZDA,202719.33,03,05,2019,00,00*65
$GPGGA,202719.45,4229.066619,N,14329.535226,E,1,08,1.0,13415.18,M,35.9,M,,0000*54
$GPZDA,202719.45,03,05,2019,00,00*64
$GPGGA,202719.93,4229.052174,N,14329.564097,E,1,08,1.0,13595.46,M,35.9,M,,0000*5A
$GPZDA,202719.93,03,05,2019,00,00*6F
$GPGGA,202720.02,4229.046367,N,14329.577296,E,1,08,1.0,13687.18,M,35.9,M,,0000*57
$GPZDA,202720.02,03,05,2019,00,00*6D
$GPGGA,202720.50,4229.031631,N,14329.606597,E,1,08,1.0,13868.06,M,35.9,M,,0000*55
$GPZDA,202720.50,03,05,2019,00,00*6A
$GPGGA,202720.62,4229.025532,N,14329.620228,E,1,08,1.0,13960.37,M,35.9,M,,0000*5D
$GPZDA,202720.62,03,05,2019,00,00*6B
$GPGGA,202721.07,4229.011105,N,14329.651106,E,1,08,1.0,14148.03,M,35.9,M,,0000*53
$GPZDA,202721.07,03,05,2019,00,00*69
$GPGGA,202721.19,4229.011257,N,14329.649070,E,1,08,1.0,14147.72,M,35.9,M,,0000*58
$GPZDA,202721.19,03,05,2019,00,00*66
$GPGGA,202721.64,4228.989637,N,14329.694289,E,1,08,1.0,14429.91,M,35.9,M,,0000*5D
$GPZDA,202721.64,03,05,2019,00,00*6C
$GPGGA,202721.79,4228.990725,N,14329.693856,E,1,08,1.0,14430.67,M,35.9,M,,0000*55
$GPZDA,202721.79,03,05,2019,00,00*60
$GPGGA,202722.24,4228.968306,N,14329.739352,E,1,08,1.0,14714.49,M,35.9,M,,0000*5B
$GPZDA,202722.24,03,05,2019,00,00*6B
$GPGGA,202722.36,4228.969317,N,14329.739938,E,1,08,1.0,14715.40,M,35.9,M,,0000*57
$GPZDA,202722.36,03,05,2019,00,00*68
$GPGGA,202722.93,4228.947826,N,14329.784236,E,1,08,1.0,15009.18,M,35.9,M,,0000*58
$GPZDA,202722.93,03,05,2019,00,00*67
$GPGGA,202723.38,4228.927272,N,14329.830132,E,1,08,1.0,15304.03,M,35.9,M,,0000*56
$GPZDA,202723.38,03,05,2019,00,00*67
$GPGGA,202723.50,4228.927558,N,14329.829980,E,1,08,1.0,15306.41,M,35.9,M,,0000*5A
$GPZDA,202723.50,03,05,2019,00,00*69
$GPGGA,202723.98,4228.913080,N,14329.860517,E,1,08,1.0,15504.55,M,35.9,M,,0000*57
$GPZDA,202723.98,03,05,2019,00,00*6D
$GPGGA,202724.10,4228.907209,N,14329.877019,E,1,08,1.0,15606.77,M,35.9,M,,0000*5A
$GPZDA,202724.10,03,05,2019,00,00*6A
$GPGGA,202724.55,4228.892433,N,14329.908267,E,1,08,1.0,15808.48,M,35.9,M,,0000*57
$GPZDA,202724.55,03,05,2019,00,00*6B
$GPGGA,202724.67,4228.886234,N,14329.924030,E,1,08,1.0,15912.85,M,35.9,M,,0000*57
$GPZDA,202724.67,03,05,2019,00,00*6A
$GPGGA,202725.12,4228.872539,N,14329.955122,E,1,08,1.0,16118.29,M,35.9,M,,0000*56
$GPZDA,202725.12,03,05,2019,00,00*69
$GPGGA,202725.24,4228.864926,N,14329.970579,E,1,08,1.0,16224.05,M,35.9,M,,0000*59
$GPZDA,202725.24,03,05,2019,00,00*6C
$GPGGA,202725.81,4228.843963,N,14330.019873,E,1,08,1.0,16540.48,M,35.9,M,,0000*57
$GPZDA,202725.81,03,05,2019,00,00*63
$GPGGA,202725.87,4228.843963,N,14330.019873,E,1,08,1.0,16540.48,M,35.9,M,,0000*51
$GPZDA,202725.87,03,05,2019,00,00*65
$GPGGA,202726.41,4228.823147,N,14330.067406,E,1,08,1.0,16859.57,M,35.9,M,,0000*5C
$GPZDA,202726.41,03,05,2019,00,00*6C
$GPGGA,202726.86,4228.809436,N,14330.099330,E,1,08,1.0,17073.94,M,35.9,M,,0000*51
$GPZDA,202726.86,03,05,2019,00,00*67
$GPGGA,202726.98,4228.809353,N,14330.100629,E,1,08,1.0,17077.07,M,35.9,M,,0000*58
$GPZDA,202726.98,03,05,2019,00,00*68
$GPGGA,202727.55,4228.788527,N,14330.148714,E,1,08,1.0,17402.11,M,35.9,M,,0000*59
$GPZDA,202727.55,03,05,2019,00,00*68
$GPGGA,202728.03,4228.768102,N,14330.199368,E,1,08,1.0,17741.16,M,35.9,M,,0000*58
$GPZDA,202728.03,03,05,2019,00,00*64
$GPGGA,202728.09,4228.768102,N,14330.199368,E,1,08,1.0,17741.16,M,35.9,M,,0000*52
$GPZDA,202728.09,03,05,2019,00,00*6E
$GPGGA,202728.12,4228.768506,N,14330.199087,E,1,08,1.0,17738.86,M,35.9,M,,0000*5D
$GPZDA,202728.12,03,05,2019,00,00*64
$GPGGA,202728.60,4228.748011,N,14330.247395,E,1,08,1.0,18081.01,M,35.9,M,,0000*5C
$GPZDA,202728.60,03,05,2019,00,00*61
$GPGGA,202728.72,4228.747036,N,14330.247980,E,1,08,1.0,18078.54,M,35.9,M,,0000*5D
$GPZDA,202728.72,03,05,2019,00,00*62
$GPGGA,202729.17,4228.733979,N,14330.281141,E,1,08,1.0,18310.85,M,35.9,M,,0000*50
$GPZDA,202729.17,03,05,2019,00,00*60
$GPGGA,202729.29,4228.726970,N,14330.297733,E,1,08,1.0,18422.79,M,35.9,M,,0000*51
$GPZDA,202729.29,03,05,2019,00,00*6D
$GPGGA,202729.77,4228.712918,N,14330.332316,E,1,08,1.0,18661.56,M,35.9,M,,0000*56
$GPZDA,202729.77,03,05,2019,00,00*66
$GPGGA,202729.89,4228.706062,N,14330.346870,E,1,08,1.0,18773.19,M,35.9,M,,0000*57
$GPZDA,202729.89,03,05,2019,00,00*67
$GPGGA,202730.34,4228.692222,N,14330.382315,E,1,08,1.0,19014.50,M,35.9,M,,0000*59
$GPZDA,202730.34,03,05,2019,00,00*69
$GPGGA,202730.46,4228.685883,N,14330.399312,E,1,08,1.0,19135.45,M,35.9,M,,0000*50
$GPZDA,202730.46,03,05,2019,00,00*6C
$GPGGA,202730.91,4228.670957,N,14330.435185,E,1,08,1.0,19375.99,M,35.9,M,,0000*52
$GPZDA,202730.91,03,05,2019,00,00*66
$GPGGA,202731.03,4228.664591,N,14330.450729,E,1,08,1.0,19495.53,M,35.9,M,,0000*57
$GPZDA,202731.03,03,05,2019,00,00*6C
$GPGGA,202731.09,4228.664591,N,14330.450729,E,1,08,1.0,19495.53,M,35.9,M,,0000*5D
$GPZDA,202731.09,03,05,2019,00,00*66
$GPGGA,202731.51,4228.651166,N,14330.488176,E,1,08,1.0,19744.88,M,35.9,M,,0000*5A
$GPZDA,202731.51,03,05,2019,00,00*6B
$GPGGA,202731.60,4228.643421,N,14330.504583,E,1,08,1.0,19864.24,M,35.9,M,,0000*5D
$GPZDA,202731.60,03,05,2019,00,00*69
$GPGGA,202732.65,4228.609884,N,14330.596837,E,1,08,1.0,20497.95,M,35.9,M,,0000*5F
$GPZDA,202732.65,03,05,2019,00,00*6F
$GPGGA,202732.77,4228.608407,N,14330.596989,E,1,08,1.0,20493.54,M,35.9,M,,0000*57
$GPZDA,202732.77,03,05,2019,00,00*6C
$GPGGA,202733.22,4228.589487,N,14330.651794,E,1,08,1.0,20879.92,M,35.9,M,,0000*5C
$GPZDA,202733.22,03,05,2019,00,00*6D
$GPGGA,202733.34,4228.588985,N,14330.651361,E,1,08,1.0,20877.98,M,35.9,M,,0000*5F
$GPZDA,202733.34,03,05,2019,00,00*6A
$GPGGA,202733.82,4228.570054,N,14330.706719,E,1,08,1.0,21270.31,M,35.9,M,,0000*57
$GPZDA,202733.82,03,05,2019,00,00*67
$GPGGA,202733.91,4228.570054,N,14330.706719,E,1,08,1.0,21270.31,M,35.9,M,,0000*55
$GPZDA,202733.91,03,05,2019,00,00*65
$GPGGA,202734.00,4228.570054,N,14330.706719,E,1,08,1.0,21270.31,M,35.9,M,,0000*5A
$GPZDA,202734.00,03,05,2019,00,00*6A
$GPGGA,202734.39,4228.557151,N,14330.743511,E,1,08,1.0,21534.91,M,35.9,M,,0000*57
$GPZDA,202734.39,03,05,2019,00,00*60
$GPGGA,202734.51,4228.550317,N,14330.762630,E,1,08,1.0,21667.24,M,35.9,M,,0000*56
$GPZDA,202734.51,03,05,2019,00,00*6E
$GPGGA,202734.96,4228.537542,N,14330.801579,E,1,08,1.0,21937.51,M,35.9,M,,0000*56
$GPZDA,202734.96,03,05,2019,00,00*65
$GPGGA,202735.08,4228.532694,N,14330.820696,E,1,08,1.0,22073.22,M,35.9,M,,0000*52
$GPZDA,202735.08,03,05,2019,00,00*63
$GPGGA,202735.56,4228.519399,N,14330.860047,E,1,08,1.0,22350.47,M,35.9,M,,0000*57
$GPZDA,202735.56,03,05,2019,00,00*68
$GPGGA,202735.65,4228.513361,N,14330.879161,E,1,08,1.0,22484.15,M,35.9,M,,0000*5E
$GPZDA,202735.65,03,05,2019,00,00*68
$GPGGA,202736.13,4228.501223,N,14330.917338,E,1,08,1.0,22764.98,M,35.9,M,,0000*57
$GPZDA,202736.13,03,05,2019,00,00*6A
$GPGGA,202736.25,4228.494594,N,14330.937594,E,1,08,1.0,22902.83,M,35.9,M,,0000*52
$GPZDA,202736.25,03,05,2019,00,00*6F
$GPGGA,202736.70,4228.482054,N,14330.976045,E,1,08,1.0,23185.96,M,35.9,M,,0000*52
$GPZDA,202736.70,03,05,2019,00,00*6F
$GPGGA,202736.82,4228.477014,N,14330.996299,E,1,08,1.0,23326.51,M,35.9,M,,0000*5C
$GPZDA,202736.82,03,05,2019,00,00*62
$GPGGA,202737.39,4228.458726,N,14331.056267,E,1,08,1.0,23759.03,M,35.9,M,,0000*58
$GPZDA,202737.39,03,05,2019,00,00*63
$GPGGA,202737.87,4228.447201,N,14331.097860,E,1,08,1.0,24056.39,M,35.9,M,,0000*55
$GPZDA,202737.87,03,05,2019,00,00*66
$GPGGA,202737.99,4228.447207,N,14331.097581,E,1,08,1.0,24053.41,M,35.9,M,,0000*54
$GPZDA,202737.99,03,05,2019,00,00*69
$GPGGA,202738.05,4228.447207,N,14331.097581,E,1,08,1.0,24053.41,M,35.9,M,,0000*5E
$GPZDA,202738.05,03,05,2019,00,00*63
$GPGGA,202738.44,4228.431180,N,14331.157942,E,1,08,1.0,24497.65,M,35.9,M,,0000*52
$GPZDA,202738.44,03,05,2019,00,00*66
$GPGGA,202738.56,4228.430859,N,14331.156925,E,1,08,1.0,24496.82,M,35.9,M,,0000*55
$GPZDA,202738.56,03,05,2019,00,00*65
$GPGGA,202739.01,4228.414334,N,14331.219414,E,1,08,1.0,24952.43,M,35.9,M,,0000*5F
$GPZDA,202739.01,03,05,2019,00,00*66
$GPGGA,202739.07,4228.414334,N,14331.219414,E,1,08,1.0,24952.43,M,35.9,M,,0000*59
$GPZDA,202739.07,03,05,2019,00,00*60
$GPGGA,202739.13,4228.413944,N,14331.219134,E,1,08,1.0,24948.78,M,35.9,M,,0000*52
$GPZDA,202739.13,03,05,2019,00,00*65
$GPGGA,202739.61,4228.397407,N,14331.282172,E,1,08,1.0,25410.34,M,35.9,M,,0000*5F
$GPZDA,202739.61,03,05,2019,00,00*60
$GPGGA,202739.70,4228.398395,N,14331.281028,E,1,08,1.0,25406.86,M,35.9,M,,0000*5F
$GPZDA,202739.70,03,05,2019,00,00*60
$GPGGA,202740.18,4228.387920,N,14331.323845,E,1,08,1.0,25722.83,M,35.9,M,,0000*5F
$GPZDA,202740.18,03,05,2019,00,00*60
$GPGGA,202740.30,4228.382349,N,14331.345049,E,1,08,1.0,25876.32,M,35.9,M,,0000*55
$GPZDA,202740.30,03,05,2019,00,00*6A
$GPGGA,202740.75,4228.371980,N,14331.388291,E,1,08,1.0,26193.56,M,35.9,M,,0000*52
$GPZDA,202740.75,03,05,2019,00,00*6B
$GPGGA,202740.87,4228.367856,N,14331.407891,E,1,08,1.0,26350.03,M,35.9,M,,0000*55
$GPZDA,202740.87,03,05,2019,00,00*66
$GPGGA,202741.32,4228.357184,N,14331.452118,E,1,08,1.0,26673.82,M,35.9,M,,0000*5A
$GPZDA,202741.32,03,05,2019,00,00*69
$GPGGA,202741.38,4228.357184,N,14331.452118,E,1,08,1.0,26673.82,M,35.9,M,,0000*50
$GPZDA,202741.38,03,05,2019,00,00*63
$GPGGA,202741.44,4228.352289,N,14331.473442,E,1,08,1.0,26833.34,M,35.9,M,,0000*5E
$GPZDA,202741.44,03,05,2019,00,00*68
$GPGGA,202741.92,4228.341792,N,14331.517357,E,1,08,1.0,27161.22,M,35.9,M,,0000*50
$GPZDA,202741.92,03,05,2019,00,00*63
$GPGGA,202742.01,4228.337469,N,14331.538373,E,1,08,1.0,27325.50,M,35.9,M,,0000*53
$GPZDA,202742.01,03,05,2019,00,00*6A
$GPGGA,202742.07,4228.337469,N,14331.538373,E,1,08,1.0,27325.50,M,35.9,M,,0000*55
$GPZDA,202742.07,03,05,2019,00,00*6C
$GPGGA,202742.49,4228.327620,N,14331.580961,E,1,08,1.0,27657.99,M,35.9,M,,0000*5E
$GPZDA,202742.49,03,05,2019,00,00*66
$GPGGA,202742.61,4228.280151,N,14331.602964,E,1,08,1.0,27755.89,M,35.9,M,,0000*57
$GPZDA,202742.61,03,05,2019,00,00*6C
$GPGGA,202743.06,4228.313563,N,14331.647272,E,1,08,1.0,28166.38,M,35.9,M,,0000*57
$GPZDA,202743.06,03,05,2019,00,00*6C
$GPGGA,202743.18,4228.313430,N,14331.645392,E,1,08,1.0,28163.69,M,35.9,M,,0000*53
$GPZDA,202743.18,03,05,2019,00,00*63
$GPGGA,202743.63,4228.299041,N,14331.711236,E,1,08,1.0,28677.20,M,35.9,M,,0000*5E
$GPZDA,202743.63,03,05,2019,00,00*6F
$GPGGA,202743.75,4228.299625,N,14331.710372,E,1,08,1.0,28676.01,M,35.9,M,,0000*5F
$GPZDA,202743.75,03,05,2019,00,00*68
$GPGGA,202744.20,4228.285212,N,14331.777322,E,1,08,1.0,29201.43,M,35.9,M,,0000*52
$GPZDA,202744.20,03,05,2019,00,00*6F
$GPGGA,202744.32,4228.285482,N,14331.775164,E,1,08,1.0,29196.43,M,35.9,M,,0000*51
$GPZDA,202744.32,03,05,2019,00,00*6C
$GPGGA,202744.77,4228.276489,N,14331.820112,E,1,08,1.0,29552.37,M,35.9,M,,0000*56
$GPZDA,202744.77,03,05,2019,00,00*6D
$GPGGA,202744.89,4228.271711,N,14331.841061,E,1,08,1.0,29729.43,M,35.9,M,,0000*5D
$GPZDA,202744.89,03,05,2019,00,00*6C
$GPGGA,202745.37,4228.262941,N,14331.883235,E,1,08,1.0,30087.88,M,35.9,M,,0000*51
$GPZDA,202745.37,03,05,2019,00,00*68
$GPGGA,202745.49,4228.258109,N,14331.906922,E,1,08,1.0,30269.50,M,35.9,M,,0000*53
$GPZDA,202745.49,03,05,2019,00,00*61
$GPGGA,202746.06,4228.245623,N,14331.970715,E,1,08,1.0,30817.67,M,35.9,M,,0000*54
$GPZDA,202746.06,03,05,2019,00,00*69
$GPGGA,202746.51,4228.237511,N,14332.013838,E,1,08,1.0,31191.08,M,35.9,M,,0000*51
$GPZDA,202746.51,03,05,2019,00,00*6B
$GPGGA,202746.63,4228.232931,N,14332.036197,E,1,08,1.0,31376.63,M,35.9,M,,0000*56
$GPZDA,202746.63,03,05,2019,00,00*6A
$GPGGA,202746.69,4228.232931,N,14332.036197,E,1,08,1.0,31376.63,M,35.9,M,,0000*5C
$GPZDA,202746.69,03,05,2019,00,00*60
$GPGGA,202747.20,4228.220291,N,14332.101768,E,1,08,1.0,31947.34,M,35.9,M,,0000*5B
$GPZDA,202747.20,03,05,2019,00,00*6C
$GPGGA,202747.77,4228.211759,N,14332.145991,E,1,08,1.0,32331.98,M,35.9,M,,0000*5C
$GPZDA,202747.77,03,05,2019,00,00*6E
$GPGGA,202748.25,4228.199943,N,14332.209917,E,1,08,1.0,32911.38,M,35.9,M,,0000*55
$GPZDA,202748.25,03,05,2019,00,00*66
$GPGGA,202748.37,4228.200047,N,14332.210349,E,1,08,1.0,32912.65,M,35.9,M,,0000*5A
$GPZDA,202748.37,03,05,2019,00,00*65
$GPGGA,202748.82,4228.189110,N,14332.275531,E,1,08,1.0,33503.61,M,35.9,M,,0000*56
$GPZDA,202748.82,03,05,2019,00,00*6B
$GPGGA,202748.94,4228.188416,N,14332.276241,E,1,08,1.0,33506.50,M,35.9,M,,0000*57
$GPZDA,202748.94,03,05,2019,00,00*6C
$GPGGA,202748.97,4228.188416,N,14332.276241,E,1,08,1.0,33506.50,M,35.9,M,,0000*54
$GPZDA,202748.97,03,05,2019,00,00*6F
$GPGGA,202749.39,4228.181383,N,14332.318945,E,1,08,1.0,33905.87,M,35.9,M,,0000*50
$GPZDA,202749.39,03,05,2019,00,00*6A
$GPGGA,202749.51,4228.177426,N,14332.341081,E,1,08,1.0,34107.93,M,35.9,M,,0000*5A
$GPZDA,202749.51,03,05,2019,00,00*64
$GPGGA,202749.96,4228.170298,N,14332.385627,E,1,08,1.0,34516.38,M,35.9,M,,0000*52
$GPZDA,202749.96,03,05,2019,00,00*6F
$GPGGA,202750.08,4228.165438,N,14332.407606,E,1,08,1.0,34718.80,M,35.9,M,,0000*54
$GPZDA,202750.08,03,05,2019,00,00*60
$GPGGA,202750.53,4228.158556,N,14332.451103,E,1,08,1.0,35134.17,M,35.9,M,,0000*5B
$GPZDA,202750.53,03,05,2019,00,00*6E
$GPGGA,202750.65,4228.155275,N,14332.473357,E,1,08,1.0,35342.26,M,35.9,M,,0000*57
$GPZDA,202750.65,03,05,2019,00,00*6B
$GPGGA,202751.13,4228.148089,N,14332.517833,E,1,08,1.0,35764.17,M,35.9,M,,0000*52
$GPZDA,202751.13,03,05,2019,00,00*6B
$GPGGA,202751.25,4228.145378,N,14332.539778,E,1,08,1.0,35977.03,M,35.9,M,,0000*52
$GPZDA,202751.25,03,05,2019,00,00*6E
$GPGGA,202751.70,4228.138256,N,14332.583788,E,1,08,1.0,36404.73,M,35.9,M,,0000*56
$GPZDA,202751.70,03,05,2019,00,00*6E
$GPGGA,202751.82,4228.134428,N,14332.604992,E,1,08,1.0,36618.39,M,35.9,M,,0000*50
$GPZDA,202751.82,03,05,2019,00,00*63
$GPGGA,202752.27,4228.128802,N,14332.650566,E,1,08,1.0,37054.90,M,35.9,M,,0000*5F
$GPZDA,202752.27,03,05,2019,00,00*6F
$GPGGA,202752.39,4228.128086,N,14332.649551,E,1,08,1.0,37053.39,M,35.9,M,,0000*5C
$GPZDA,202752.39,03,05,2019,00,00*60
$GPGGA,202752.84,4228.118969,N,14332.716262,E,1,08,1.0,37717.69,M,35.9,M,,0000*5F
$GPZDA,202752.84,03,05,2019,00,00*66
$GPGGA,202752.96,4228.118677,N,14332.716693,E,1,08,1.0,37718.28,M,35.9,M,,0000*5C
$GPZDA,202752.96,03,05,2019,00,00*65
$GPGGA,202753.44,4228.108750,N,14332.784225,E,1,08,1.0,38390.15,M,35.9,M,,0000*50
$GPZDA,202753.44,03,05,2019,00,00*6B
$GPGGA,202753.53,4228.108937,N,14332.783363,E,1,08,1.0,38388.29,M,35.9,M,,0000*5B
$GPZDA,202753.53,03,05,2019,00,00*6D
$GPGGA,202754.01,4228.099673,N,14332.851564,E,1,08,1.0,39072.15,M,35.9,M,,0000*54
$GPZDA,202754.01,03,05,2019,00,00*6D
$GPGGA,202754.10,4228.099457,N,14332.850981,E,1,08,1.0,39072.59,M,35.9,M,,0000*5E
$GPZDA,202754.10,03,05,2019,00,00*6D
$GPGGA,202754.58,4228.094116,N,14332.896135,E,1,08,1.0,39533.71,M,35.9,M,,0000*58
$GPZDA,202754.58,03,05,2019,00,00*61
$GPGGA,202755.15,4228.085364,N,14332.963953,E,1,08,1.0,40235.78,M,35.9,M,,0000*52
$GPZDA,202755.15,03,05,2019,00,00*69
$GPGGA,202755.21,4228.085364,N,14332.963953,E,1,08,1.0,40235.78,M,35.9,M,,0000*55
$GPZDA,202755.21,03,05,2019,00,00*6E
$GPGGA,202755.27,4228.082145,N,14332.985482,E,1,08,1.0,40471.90,M,35.9,M,,0000*5C
$GPZDA,202755.27,03,05,2019,00,00*68
$GPGGA,202755.72,4228.076558,N,14333.031425,E,1,08,1.0,40948.34,M,35.9,M,,0000*5C
$GPZDA,202755.72,03,05,2019,00,00*68
$GPGGA,202755.84,4228.073974,N,14333.055254,E,1,08,1.0,41189.09,M,35.9,M,,0000*5A
$GPZDA,202755.84,03,05,2019,00,00*61
$GPGGA,202756.29,4228.068131,N,14333.099715,E,1,08,1.0,41670.50,M,35.9,M,,0000*50
$GPZDA,202756.29,03,05,2019,00,00*65
$GPGGA,202756.41,4228.066012,N,14333.122805,E,1,08,1.0,41914.75,M,35.9,M,,0000*55
$GPZDA,202756.41,03,05,2019,00,00*6B
$GPGGA,202756.86,4228.059685,N,14333.168825,E,1,08,1.0,42401.58,M,35.9,M,,0000*53
$GPZDA,202756.86,03,05,2019,00,00*60
$GPGGA,202757.46,4228.051712,N,14333.236905,E,1,08,1.0,43133.19,M,35.9,M,,0000*52
$GPZDA,202757.46,03,05,2019,00,00*6D
$GPGGA,202757.55,4228.051893,N,14333.236322,E,1,08,1.0,43134.30,M,35.9,M,,0000*55
$GPZDA,202757.55,03,05,2019,00,00*6F
$GPGGA,202757.61,4228.051893,N,14333.236322,E,1,08,1.0,43134.30,M,35.9,M,,0000*52
$GPZDA,202757.61,03,05,2019,00,00*68
$GPGGA,202757.67,4228.051893,N,14333.236322,E,1,08,1.0,43134.30,M,35.9,M,,0000*54
$GPZDA,202757.67,03,05,2019,00,00*6E
$GPGGA,202758.03,4228.044726,N,14333.303831,E,1,08,1.0,43861.31,M,35.9,M,,0000*5A
$GPZDA,202758.03,03,05,2019,00,00*63
$GPGGA,202758.15,4228.045017,N,14333.303400,E,1,08,1.0,43860.72,M,35.9,M,,0000*51
$GPZDA,202758.15,03,05,2019,00,00*64
$GPGGA,202758.60,4228.035803,N,14333.371628,E,1,08,1.0,44581.53,M,35.9,M,,0000*52
$GPZDA,202758.60,03,05,2019,00,00*66
$GPGGA,202758.72,4228.036886,N,14333.371198,E,1,08,1.0,44582.29,M,35.9,M,,0000*5D
$GPZDA,202758.72,03,05,2019,00,00*65
$GPGGA,202759.29,4228.028901,N,14333.437232,E,1,08,1.0,45306.52,M,35.9,M,,0000*52
$GPZDA,202759.29,03,05,2019,00,00*6A
$GPGGA,202759.74,4228.022874,N,14333.479941,E,1,08,1.0,45776.47,M,35.9,M,,0000*51
$GPZDA,202759.74,03,05,2019,00,00*62
$GPGGA,202759.80,4228.022874,N,14333.479941,E,1,08,1.0,45776.47,M,35.9,M,,0000*5A
$GPZDA,202759.80,03,05,2019,00,00*69
$GPGGA,202759.86,4228.022874,N,14333.479941,E,1,08,1.0,45776.47,M,35.9,M,,0000*5C
$GPZDA,202759.86,03,05,2019,00,00*6F
$GPGGA,202800.34,4228.018721,N,14333.543799,E,1,08,1.0,46501.79,M,35.9,M,,0000*5F
$GPZDA,202800.34,03,05,2019,00,00*65
$GPGGA,202800.43,4228.014924,N,14333.566145,E,1,08,1.0,46739.10,M,35.9,M,,0000*5E
$GPZDA,202800.43,03,05,2019,00,00*65
$GPGGA,202800.91,4228.010348,N,14333.606962,E,1,08,1.0,47209.05,M,35.9,M,,0000*5E
$GPZDA,202800.91,03,05,2019,00,00*6A
$GPGGA,202801.00,4228.008716,N,14333.628443,E,1,08,1.0,47447.88,M,35.9,M,,0000*5A
$GPZDA,202801.00,03,05,2019,00,00*63
$GPGGA,202801.09,4228.008716,N,14333.628443,E,1,08,1.0,47447.88,M,35.9,M,,0000*53
$GPZDA,202801.09,03,05,2019,00,00*6A
$GPGGA,202801.48,4228.004216,N,14333.668237,E,1,08,1.0,47917.68,M,35.9,M,,0000*58
$GPZDA,202801.48,03,05,2019,00,00*6F
$GPGGA,202801.60,4228.004216,N,14333.668237,E,1,08,1.0,47917.68,M,35.9,M,,0000*52
$GPZDA,202801.60,03,05,2019,00,00*65
$GPGGA,202802.05,4227.998273,N,14333.728639,E,1,08,1.0,48624.44,M,35.9,M,,0000*53
$GPZDA,202802.05,03,05,2019,00,00*65
$GPGGA,202802.17,4227.998099,N,14333.728944,E,1,08,1.0,48620.35,M,35.9,M,,0000*51
$GPZDA,202802.17,03,05,2019,00,00*66
$GPGGA,202802.62,4227.991163,N,14333.788195,E,1,08,1.0,49320.25,M,35.9,M,,0000*55
$GPZDA,202802.62,03,05,2019,00,00*64
$GPGGA,202802.74,4227.992251,N,14333.787488,E,1,08,1.0,49318.03,M,35.9,M,,0000*5A
$GPZDA,202802.74,03,05,2019,00,00*63
$GPGGA,202803.19,4227.986307,N,14333.845311,E,1,08,1.0,50011.47,M,35.9,M,,0000*53
$GPZDA,202803.19,03,05,2019,00,00*69
$GPGGA,202803.79,4227.983749,N,14333.881357,E,1,08,1.0,50472.88,M,35.9,M,,0000*56
$GPZDA,202803.79,03,05,2019,00,00*6F
$GPGGA,202803.88,4227.980529,N,14333.900542,E,1,08,1.0,50698.65,M,35.9,M,,0000*50
$GPZDA,202803.88,03,05,2019,00,00*61
$GPGGA,202804.36,4227.977611,N,14333.937745,E,1,08,1.0,51157.83,M,35.9,M,,0000*5E
$GPZDA,202804.36,03,05,2019,00,00*63
$GPGGA,202804.48,4227.975665,N,14333.955359,E,1,08,1.0,51379.52,M,35.9,M,,0000*59
$GPZDA,202804.48,03,05,2019,00,00*6A
$GPGGA,202804.93,4227.971319,N,14333.990530,E,1,08,1.0,51835.69,M,35.9,M,,0000*5E
$GPZDA,202804.93,03,05,2019,00,00*6C
$GPGGA,202805.05,4227.970192,N,14334.009583,E,1,08,1.0,52060.16,M,35.9,M,,0000*55
$GPZDA,202805.05,03,05,2019,00,00*62
$GPGGA,202805.50,4227.966941,N,14334.043761,E,1,08,1.0,52511.13,M,35.9,M,,0000*52
$GPZDA,202805.50,03,05,2019,00,00*62
$GPGGA,202805.62,4227.964892,N,14334.060939,E,1,08,1.0,52731.56,M,35.9,M,,0000*5D
$GPZDA,202805.62,03,05,2019,00,00*63
